{
"type": "FeatureCollection",
"name": "hotelLodging",
"crs": { "type": "name", "properties": { "name": "urn:ogc:def:crs:OGC:1.3:CRS84" } },
"features": [
{ "type": "Feature", "properties": { "Name": "Big Rock", "Ownership": "Public", "Type": null, "Management": "Forestry", "Latitude": 17.033142, "Longitude": -88.974704 }, "geometry": { "type": "Point", "coordinates": [ -88.9747, 17.03314 ] } },
{ "type": "Feature", "properties": { "Name": "Blancaneux Lodge", "Ownership": "Private", "Type": null, "Management": null, "Latitude": 17.036885, "Longitude": -88.953696 }, "geometry": { "type": "Point", "coordinates": [ -88.95369, 17.03688 ] } },
{ "type": "Feature", "properties": { "Name": "Caracol", "Ownership": "Public", "Type": null, "Management": "NICH", "Latitude": 16.763082, "Longitude": -89.117815 }, "geometry": { "type": "Point", "coordinates": [ -89.11781, 16.76308 ] } },
{ "type": "Feature", "properties": { "Name": "Chalillo Dam", "Ownership": "Private", "Type": null, "Management": "BECOL", "Latitude": 16.86187, "Longitude": -89.013333 }, "geometry": { "type": "Point", "coordinates": [ -89.01333, 16.86187 ] } },
{ "type": "Feature", "properties": { "Name": "Douglas D'Silva", "Ownership": "Public", "Type": null, "Management": "Forestry", "Latitude": 16.971394, "Longitude": -88.991098 }, "geometry": { "type": "Point", "coordinates": [ -88.99109, 16.97139 ] } },
{ "type": "Feature", "properties": { "Name": "Gaia Resort", "Ownership": "Private", "Type": null, "Management": null, "Latitude": 17.038826, "Longitude": -88.98443 }, "geometry": { "type": "Point", "coordinates": [ -88.98442, 17.03882 ] } },
{ "type": "Feature", "properties": { "Name": "Kane Villas", "Ownership": "Private", "Type": null, "Management": null, "Latitude": 17.042449, "Longitude": -88.979731 }, "geometry": { "type": "Point", "coordinates": [ -88.97973, 17.04245 ] } },
{ "type": "Feature", "properties": { "Name": "Las Cuevas Research Station", "Ownership": "Public", "Type": null, "Management": "FCD", "Latitude": 16.733578, "Longitude": -88.985996 }, "geometry": { "type": "Point", "coordinates": [ -88.98599, 16.73358 ] } },
{ "type": "Feature", "properties": { "Name": "Mollejon Dam", "Ownership": "Private", "Type": null, "Management": "BECOL", "Latitude": 16.95584, "Longitude": -89.044389 }, "geometry": { "type": "Point", "coordinates": [ -89.04438, 16.95584 ] } },
{ "type": "Feature", "properties": { "Name": "Pinol Sands", "Ownership": "Public", "Type": null, "Management": "Forestry", "Latitude": 17.012093, "Longitude": -88.98311 }, "geometry": { "type": "Point", "coordinates": [ -88.9831, 17.01209 ] } },
{ "type": "Feature", "properties": { "Name": "Rio on Pools", "Ownership": "Public", "Type": null, "Management": "Forestry", "Latitude": 16.987001, "Longitude": -88.977514 }, "geometry": { "type": "Point", "coordinates": [ -88.97751, 16.987 ] } },
{ "type": "Feature", "properties": { "Name": "Rio-Frio Cave", "Ownership": "Public", "Type": null, "Management": "Forestry", "Latitude": 16.979604, "Longitude": -89.000121 }, "geometry": { "type": "Point", "coordinates": [ -89.00012, 16.9796 ] } },
{ "type": "Feature", "properties": { "Name": "Thousand Foot Falls", "Ownership": "Public", "Type": null, "Management": "Forestry", "Latitude": 17.059574, "Longitude": -88.848385 }, "geometry": { "type": "Point", "coordinates": [ -88.84838, 17.05957 ] } },
{ "type": "Feature", "properties": { "Name": "Vaca Dam", "Ownership": "Private", "Type": null, "Management": "BECOL", "Latitude": 17.019007, "Longitude": -89.057166 }, "geometry": { "type": "Point", "coordinates": [ -89.05716, 17.019 ] } }
]
}
